[
  {
    "id": 2243939,
    "name": "Ziguinchor",
    "state": "",
    "country": "SN",
    "coord": {
      "lon": -16.33333,
      "lat": 12.75
    }
  },
  {
    "id": 2243940,
    "name": "Ziguinchor",
    "state": "",
    "country": "SN",
    "coord": {
      "lon": -16.27194,
      "lat": 12.58333
    }
  },
  {
    "id": 2243973,
    "name": "Yoff",
    "state": "",
    "country": "SN",
    "coord": {
      "lon": -17.47389,
      "lat": 14.76056
    }
  },
  {
    "id": 2244122,
    "name": "Vèndou Séno",
    "state": "",
    "country": "SN",
    "coord": {
      "lon": -15.0865,
      "lat": 15.2707
    }
  },
  {
    "id": 2244177,
    "name": "Vélingara",
    "state": "",
    "country": "SN",
    "coord": {
      "lon": -14.11667,
      "lat": 13.15
    }
  },
  {
    "id": 2244221,
    "name": "Touré",
    "state": "",
    "country": "SN",
    "coord": {
      "lon": -16.066669,
      "lat": 14.51667
    }
  },
  {
    "id": 2244322,
    "name": "Touba",
    "state": "",
    "country": "SN",
    "coord": {
      "lon": -15.88333,
      "lat": 14.85
    }
  },
  {
    "id": 2244436,
    "name": "Tionk Essil",
    "state": "",
    "country": "SN",
    "coord": {
      "lon": -16.521669,
      "lat": 12.78556
    }
  },
  {
    "id": 2244460,
    "name": "Tiofak",
    "state": "",
    "country": "SN",
    "coord": {
      "lon": -16.049999,
      "lat": 14.16667
    }
  },
  {
    "id": 2244616,
    "name": "Tiébo",
    "state": "",
    "country": "SN",
    "coord": {
      "lon": -16.23333,
      "lat": 14.63333
    }
  },
  {
    "id": 2244786,
    "name": "Tiadiaye",
    "state": "",
    "country": "SN",
    "coord": {
      "lon": -16.700001,
      "lat": 14.41667
    }
  },
  {
    "id": 2244799,
    "name": "Thiès Nones",
    "state": "",
    "country": "SN",
    "coord": {
      "lon": -16.966669,
      "lat": 14.78333
    }
  },
  {
    "id": 2244800,
    "name": "Région de Thiès",
    "state": "",
    "country": "SN",
    "coord": {
      "lon": -16.851959,
      "lat": 14.87284
    }
  },
  {
    "id": 2244802,
    "name": "Thiès",
    "state": "",
    "country": "SN",
    "coord": {
      "lon": -17.10611,
      "lat": 14.83417
    }
  },
  {
    "id": 2244987,
    "name": "Tamba I",
    "state": "",
    "country": "SN",
    "coord": {
      "lon": -13.66667,
      "lat": 13.73333
    }
  },
  {
    "id": 2244990,
    "name": "Tambacounda",
    "state": "",
    "country": "SN",
    "coord": {
      "lon": -13.27513,
      "lat": 13.98416
    }
  },
  {
    "id": 2244991,
    "name": "Tambacounda",
    "state": "",
    "country": "SN",
    "coord": {
      "lon": -13.75861,
      "lat": 13.75389
    }
  },
  {
    "id": 2245170,
    "name": "Souima",
    "state": "",
    "country": "SN",
    "coord": {
      "lon": -14.96571,
      "lat": 16.66
    }
  },
  {
    "id": 2245222,
    "name": "Somone",
    "state": "",
    "country": "SN",
    "coord": {
      "lon": -17.078609,
      "lat": 14.48611
    }
  },
  {
    "id": 2245241,
    "name": "Sokone",
    "state": "",
    "country": "SN",
    "coord": {
      "lon": -16.366671,
      "lat": 13.88333
    }
  },
  {
    "id": 2245546,
    "name": "Simenti",
    "state": "",
    "country": "SN",
    "coord": {
      "lon": -13.3,
      "lat": 13.03333
    }
  },
  {
    "id": 2245662,
    "name": "Republic of Senegal",
    "state": "",
    "country": "SN",
    "coord": {
      "lon": -14.0,
      "lat": 14.0
    }
  },
  {
    "id": 2245666,
    "name": "Sémé",
    "state": "",
    "country": "SN",
    "coord": {
      "lon": -12.94482,
      "lat": 15.19422
    }
  },
  {
    "id": 2245704,
    "name": "Sédhiou",
    "state": "",
    "country": "SN",
    "coord": {
      "lon": -15.55694,
      "lat": 12.70806
    }
  },
  {
    "id": 2245709,
    "name": "Sébikhotane",
    "state": "",
    "country": "SN",
    "coord": {
      "lon": -17.136669,
      "lat": 14.74694
    }
  },
  {
    "id": 2246451,
    "name": "Saint-Louis",
    "state": "",
    "country": "SN",
    "coord": {
      "lon": -15.0,
      "lat": 16.33333
    }
  },
  {
    "id": 2246452,
    "name": "Saint-Louis",
    "state": "",
    "country": "SN",
    "coord": {
      "lon": -16.48962,
      "lat": 16.017929
    }
  },
  {
    "id": 2246522,
    "name": "Rosso",
    "state": "",
    "country": "SN",
    "coord": {
      "lon": -15.81528,
      "lat": 16.49861
    }
  },
  {
    "id": 2246544,
    "name": "Richard-Toll",
    "state": "",
    "country": "SN",
    "coord": {
      "lon": -15.70083,
      "lat": 16.4625
    }
  },
  {
    "id": 2246550,
    "name": "Rhouma",
    "state": "",
    "country": "SN",
    "coord": {
      "lon": -15.68194,
      "lat": 16.462219
    }
  },
  {
    "id": 2246585,
    "name": "Ranérou",
    "state": "",
    "country": "SN",
    "coord": {
      "lon": -13.96667,
      "lat": 15.3
    }
  },
  {
    "id": 2246606,
    "name": "Pout",
    "state": "",
    "country": "SN",
    "coord": {
      "lon": -17.06028,
      "lat": 14.77389
    }
  },
  {
    "id": 2246608,
    "name": "Pourham",
    "state": "",
    "country": "SN",
    "coord": {
      "lon": -16.41667,
      "lat": 14.35
    }
  },
  {
    "id": 2246641,
    "name": "Polel Diaoubé",
    "state": "",
    "country": "SN",
    "coord": {
      "lon": -13.0,
      "lat": 15.26667
    }
  },
  {
    "id": 2246678,
    "name": "Pikine",
    "state": "",
    "country": "SN",
    "coord": {
      "lon": -17.4,
      "lat": 14.75
    }
  },
  {
    "id": 2246780,
    "name": "Passi",
    "state": "",
    "country": "SN",
    "coord": {
      "lon": -16.26667,
      "lat": 13.98333
    }
  },
  {
    "id": 2246789,
    "name": "Pargui",
    "state": "",
    "country": "SN",
    "coord": {
      "lon": -16.133329,
      "lat": 14.4
    }
  },
  {
    "id": 2246901,
    "name": "Oussouye",
    "state": "",
    "country": "SN",
    "coord": {
      "lon": -16.54694,
      "lat": 12.485
    }
  },
  {
    "id": 2246922,
    "name": "Ouro Sogui",
    "state": "",
    "country": "SN",
    "coord": {
      "lon": -13.31667,
      "lat": 15.6
    }
  },
  {
    "id": 2247044,
    "name": "Waoundé",
    "state": "",
    "country": "SN",
    "coord": {
      "lon": -12.86821,
      "lat": 15.26367
    }
  },
  {
    "id": 2247157,
    "name": "Nioro du Rip",
    "state": "",
    "country": "SN",
    "coord": {
      "lon": -15.8,
      "lat": 13.75
    }
  },
  {
    "id": 2247246,
    "name": "Nianing",
    "state": "",
    "country": "SN",
    "coord": {
      "lon": -16.92676,
      "lat": 14.34485
    }
  },
  {
    "id": 2247381,
    "name": "Nguékhokh",
    "state": "",
    "country": "SN",
    "coord": {
      "lon": -17.004999,
      "lat": 14.51278
    }
  },
  {
    "id": 2247660,
    "name": "Ndofane",
    "state": "",
    "country": "SN",
    "coord": {
      "lon": -15.93333,
      "lat": 13.91667
    }
  },
  {
    "id": 2247684,
    "name": "Ndioum",
    "state": "",
    "country": "SN",
    "coord": {
      "lon": -14.64706,
      "lat": 16.51293
    }
  },
  {
    "id": 2247813,
    "name": "Ndibène Dahra",
    "state": "",
    "country": "SN",
    "coord": {
      "lon": -15.4766,
      "lat": 15.3338
    }
  },
  {
    "id": 2248409,
    "name": "Mékhé",
    "state": "",
    "country": "SN",
    "coord": {
      "lon": -16.621799,
      "lat": 15.1097
    }
  },
  {
    "id": 2248477,
    "name": "Mbour",
    "state": "",
    "country": "SN",
    "coord": {
      "lon": -16.963751,
      "lat": 14.42196
    }
  },
  {
    "id": 2248698,
    "name": "Mbaké",
    "state": "",
    "country": "SN",
    "coord": {
      "lon": -15.90803,
      "lat": 14.79032
    }
  },
  {
    "id": 2248752,
    "name": "Matam",
    "state": "",
    "country": "SN",
    "coord": {
      "lon": -13.33028,
      "lat": 15.6175
    }
  },
  {
    "id": 2248753,
    "name": "Matam",
    "state": "",
    "country": "SN",
    "coord": {
      "lon": -13.5,
      "lat": 15.5
    }
  },
  {
    "id": 2248777,
    "name": "Marsassoum",
    "state": "",
    "country": "SN",
    "coord": {
      "lon": -15.98056,
      "lat": 12.8275
    }
  },
  {
    "id": 2249221,
    "name": "Louga",
    "state": "",
    "country": "SN",
    "coord": {
      "lon": -15.47192,
      "lat": 15.44748
    }
  },
  {
    "id": 2249222,
    "name": "Louga",
    "state": "",
    "country": "SN",
    "coord": {
      "lon": -16.22436,
      "lat": 15.61867
    }
  },
  {
    "id": 2249281,
    "name": "Linguère",
    "state": "",
    "country": "SN",
    "coord": {
      "lon": -15.1193,
      "lat": 15.3953
    }
  },
  {
    "id": 2249554,
    "name": "Koungheul",
    "state": "",
    "country": "SN",
    "coord": {
      "lon": -14.8,
      "lat": 13.98333
    }
  },
  {
    "id": 2249781,
    "name": "Kolda",
    "state": "",
    "country": "SN",
    "coord": {
      "lon": -14.39729,
      "lat": 12.98376
    }
  },
  {
    "id": 2249782,
    "name": "Kolda",
    "state": "",
    "country": "SN",
    "coord": {
      "lon": -14.95,
      "lat": 12.88333
    }
  },
  {
    "id": 2249901,
    "name": "Khombole",
    "state": "",
    "country": "SN",
    "coord": {
      "lon": -16.700001,
      "lat": 14.76667
    }
  },
  {
    "id": 2250139,
    "name": "Keur Mor Ibra",
    "state": "",
    "country": "SN",
    "coord": {
      "lon": -15.42222,
      "lat": 16.3375
    }
  },
  {
    "id": 2250338,
    "name": "Keur Issa Bambara",
    "state": "",
    "country": "SN",
    "coord": {
      "lon": -16.9,
      "lat": 14.8
    }
  },
  {
    "id": 2250645,
    "name": "Kédougou",
    "state": "",
    "country": "SN",
    "coord": {
      "lon": -12.1743,
      "lat": 12.5579
    }
  },
  {
    "id": 2250677,
    "name": "Kayar",
    "state": "",
    "country": "SN",
    "coord": {
      "lon": -17.121111,
      "lat": 14.91917
    }
  },
  {
    "id": 2250804,
    "name": "Kaolack",
    "state": "",
    "country": "SN",
    "coord": {
      "lon": -15.97977,
      "lat": 13.92239
    }
  },
  {
    "id": 2250805,
    "name": "Kaolack",
    "state": "",
    "country": "SN",
    "coord": {
      "lon": -16.25333,
      "lat": 14.1825
    }
  },
  {
    "id": 2250849,
    "name": "Kanel",
    "state": "",
    "country": "SN",
    "coord": {
      "lon": -13.17627,
      "lat": 15.4916
    }
  },
  {
    "id": 2250982,
    "name": "Kahone",
    "state": "",
    "country": "SN",
    "coord": {
      "lon": -16.033331,
      "lat": 14.15
    }
  },
  {
    "id": 2251007,
    "name": "Kaffrine",
    "state": "",
    "country": "SN",
    "coord": {
      "lon": -15.5508,
      "lat": 14.10594
    }
  },
  {
    "id": 2251055,
    "name": "Kabrousse",
    "state": "",
    "country": "SN",
    "coord": {
      "lon": -16.72056,
      "lat": 12.35556
    }
  },
  {
    "id": 2251084,
    "name": "Joal-Fadiout",
    "state": "",
    "country": "SN",
    "coord": {
      "lon": -16.83333,
      "lat": 14.16667
    }
  },
  {
    "id": 2251230,
    "name": "Guinguinéo",
    "state": "",
    "country": "SN",
    "coord": {
      "lon": -15.95,
      "lat": 14.26667
    }
  },
  {
    "id": 2251339,
    "name": "Grand Dakar",
    "state": "",
    "country": "SN",
    "coord": {
      "lon": -17.45528,
      "lat": 14.70889
    }
  },
  {
    "id": 2251354,
    "name": "Gouye Gal",
    "state": "",
    "country": "SN",
    "coord": {
      "lon": -16.35,
      "lat": 15.48333
    }
  },
  {
    "id": 2251544,
    "name": "Goléré",
    "state": "",
    "country": "SN",
    "coord": {
      "lon": -14.10165,
      "lat": 16.255739
    }
  },
  {
    "id": 2251688,
    "name": "Gandiaye",
    "state": "",
    "country": "SN",
    "coord": {
      "lon": -16.26667,
      "lat": 14.23333
    }
  },
  {
    "id": 2251791,
    "name": "Foundiougne",
    "state": "",
    "country": "SN",
    "coord": {
      "lon": -16.466669,
      "lat": 14.13333
    }
  },
  {
    "id": 2251910,
    "name": "Fatick",
    "state": "",
    "country": "SN",
    "coord": {
      "lon": -16.401751,
      "lat": 14.38643
    }
  },
  {
    "id": 2251911,
    "name": "Fatick",
    "state": "",
    "country": "SN",
    "coord": {
      "lon": -16.585831,
      "lat": 14.35806
    }
  },
  {
    "id": 2252081,
    "name": "Fadiga",
    "state": "",
    "country": "SN",
    "coord": {
      "lon": -12.2039,
      "lat": 12.5535
    }
  },
  {
    "id": 2252263,
    "name": "Djidje Kounda",
    "state": "",
    "country": "SN",
    "coord": {
      "lon": -13.66667,
      "lat": 13.75
    }
  },
  {
    "id": 2252308,
    "name": "Diourbel",
    "state": "",
    "country": "SN",
    "coord": {
      "lon": -16.186819,
      "lat": 14.76877
    }
  },
  {
    "id": 2252309,
    "name": "Diourbel",
    "state": "",
    "country": "SN",
    "coord": {
      "lon": -16.3925,
      "lat": 14.66278
    }
  },
  {
    "id": 2252473,
    "name": "Diofior",
    "state": "",
    "country": "SN",
    "coord": {
      "lon": -16.66667,
      "lat": 14.18333
    }
  },
  {
    "id": 2252606,
    "name": "Diawara",
    "state": "",
    "country": "SN",
    "coord": {
      "lon": -12.54374,
      "lat": 15.02196
    }
  },
  {
    "id": 2252639,
    "name": "Diassi",
    "state": "",
    "country": "SN",
    "coord": {
      "lon": -16.283331,
      "lat": 12.56667
    }
  },
  {
    "id": 2253277,
    "name": "Dara",
    "state": "",
    "country": "SN",
    "coord": {
      "lon": -15.47993,
      "lat": 15.34844
    }
  },
  {
    "id": 2253301,
    "name": "Dangol",
    "state": "",
    "country": "SN",
    "coord": {
      "lon": -16.26667,
      "lat": 14.66667
    }
  },
  {
    "id": 2253348,
    "name": "Dakar Dodj",
    "state": "",
    "country": "SN",
    "coord": {
      "lon": -16.73333,
      "lat": 14.93333
    }
  },
  {
    "id": 2253349,
    "name": "Dakar-Bango",
    "state": "",
    "country": "SN",
    "coord": {
      "lon": -16.460699,
      "lat": 16.06105
    }
  },
  {
    "id": 2253350,
    "name": "Dakar",
    "state": "",
    "country": "SN",
    "coord": {
      "lon": -17.33333,
      "lat": 14.75
    }
  },
  {
    "id": 2253354,
    "name": "Dakar",
    "state": "",
    "country": "SN",
    "coord": {
      "lon": -17.444059,
      "lat": 14.6937
    }
  },
  {
    "id": 2253607,
    "name": "Boukot Ouolof",
    "state": "",
    "country": "SN",
    "coord": {
      "lon": -16.750561,
      "lat": 12.41639
    }
  },
  {
    "id": 2253901,
    "name": "Bignona",
    "state": "",
    "country": "SN",
    "coord": {
      "lon": -16.226391,
      "lat": 12.81028
    }
  }
]